region,price_total,avg_price_per_night_estimate,guests,bedrooms,beds,baths,superhost,favourite,review_index,num_reviews,host_name,latitude,longitude
Panorama,365,73,3,4,1,1,TRUE,FALSE,4.86,21,Olga,40.64058,22.95678
Panorama,150,30,2,2,,1,TRUE,FALSE,4.63,67,Giannis,40.6378,22.9571
Panorama,225,45,2,1,,,TRUE,FALSE,4.52,101,Halu,40.61738,22.96212
Panorama,255,51,4,3,2,1,TRUE,FALSE,,11,Αθανασιος,40.5974,22.9632
Panorama,210,42,3,2,1,1,TRUE,FALSE,4.89,72,Apostolos,40.6369,22.9391
Panorama,240,48,2,1,1,1,TRUE,FALSE,4.81,48,The Luxury Suites,40.6394,22.93775
Panorama,460,92,4,2,2,5,TRUE,FALSE,4.86,10,Tomas&Cristina! Skgbnb,40.599,22.9553
Panorama,235,47,4,2,1,1,TRUE,FALSE,4.71,24,Prodromos,40.6032,22.9629
Panorama,220,44,4,2,1,1,TRUE,FALSE,4.63,16,The Luxury Suites,40.6401,22.9381
Panorama,220,44,4,2,1,1,TRUE,FALSE,4.57,23,The Luxury Suites,40.64128,22.93839
Panorama,570,114,5,2,2,1,TRUE,FALSE,,9,Dimitrios,40.5844,23.027
Panorama,240,48,3,2,1,1,TRUE,FALSE,4.88,24,Γρηγορία,40.6422,22.9587
Panorama,245,49,3,1,1,1,TRUE,FALSE,4.48,75,Smart Plan,40.65086,22.9391
Panorama,225,45,4,2,1,1,TRUE,FALSE,4.53,5,The Luxury Suites,40.64035,22.93763
Panorama,275,55,3,2,2,1,TRUE,FALSE,5,,Pavlos,40.6597,22.9553
Panorama,215,43,3,2,1,1,TRUE,FALSE,4.19,20,Forget The Hotel,40.64178,22.941
Panorama,225,45,4,2,1,1,TRUE,FALSE,4.48,48,The Luxury Suites,40.6377,22.93811
Panorama,300,60,3,2,1,1,TRUE,FALSE,4.68,28,Φωτιος,40.6352,22.9407
Panorama,300,60,7,6,3,5,TRUE,FALSE,,7,Kostis,40.5993,22.955
Panorama,290,58,2,1,1,1,TRUE,FALSE,4.91,33,Cristina And Tomas Skgbnb,40.64218,22.95623
Panorama,365,73,2,1,1,1,TRUE,FALSE,,17,Ilias,40.61461,22.97804
Panorama,250,50,3,2,1,1,TRUE,FALSE,4.75,44,Panagiotis,40.6055,22.9525
Panorama,355,71,3,2,1,1,TRUE,FALSE,,9,Ilias,40.6142,22.9787
Panorama,250,50,3,2,,1,TRUE,FALSE,4.75,55,The Luxury Suites,40.63988,22.93939
Panorama,425,85,4,2,1,1,TRUE,FALSE,4.93,14,Despoina,40.6142,22.9787
Panorama,300,60,2,2,1,1,TRUE,FALSE,4.69,67,Mariana,40.6321,22.9493
Panorama,305,61,4,2,1,1,TRUE,FALSE,4.88,43,Pau,40.6023,22.9702
Panorama,335,67,4,2,1,1,TRUE,FALSE,4.86,7,Pau,40.6022,22.9701
Panorama,350,70,4,2,1,1,TRUE,FALSE,4.81,16,Tomas&Cristina! Skgbnb,40.6228,22.9609
Panorama,260,52,4,2,1,1,TRUE,FALSE,4.86,29,Avraam,40.6096,22.9709
Panorama,345,69,4,,1,1,TRUE,FALSE,4.77,108,DoorMat,40.6075,22.9599
Panorama,415,83,4,2,2,1,TRUE,FALSE,4.98,9,⁨Aigaiou House 1⁩,40.6682,22.9188
Panorama,250,50,2,1,1,1,TRUE,FALSE,4.59,27,Magda,40.6333,22.9435
Panorama,285,57,4,2,2,1,TRUE,FALSE,4.85,10,Cristina And Tomas Skgbnb,40.64203,22.9628
Panorama,355,71,2,2,1,1,TRUE,FALSE,4.25,8,Ирина,40.57897,22.94811
Panorama,290,58,4,2,1,1,TRUE,FALSE,4.69,13,Cristina And Tomas Skgbnb,40.61776,22.95587
Panorama,215,43,2,1,,1,TRUE,FALSE,4.71,38,Natasa,40.6383,22.9412
Panorama,275,55,6,2,2,1,TRUE,FALSE,4.83,30,Rolando,40.60738,22.95249
Panorama,385,77,3,2,2,1,TRUE,FALSE,,3,Philelina,40.59023818,22.95923618
Panorama,250,50,3,1,1,1,TRUE,FALSE,4.56,16,Αναστάσιος,40.5984,22.9567
Panorama,310,62,3,1,1,1,TRUE,FALSE,4.77,9,Dimitriadis,40.6094,22.9618
Panorama,250,50,2,1,1,1,TRUE,FALSE,4.79,28,Γιάννης,40.6426,22.9467
Panorama,315,63,4,2,1,1,TRUE,FALSE,4.74,27,Ваня,40.6049,22.9553
Panorama,350,70,4,2,1,1,TRUE,FALSE,4.95,58,Artemis,40.6053,22.9529
Panorama,255,51,3,1,1,1,TRUE,FALSE,4.92,25,Cristina And Tomas Skgbnb,40.62006017,22.95499402
Panorama,160,32,2,1,1,1,TRUE,FALSE,4.53,34,Athanasios,40.6436,22.9397
Panorama,255,51,3,2,1,1,TRUE,FALSE,4.47,60,Halu,40.64523602,22.9197416
Panorama,280,56,2,1,1,1,TRUE,FALSE,4.78,9,Halu,40.64568652,22.91981929
Panorama,275,55,2,1,1,1,TRUE,FALSE,4.69,42,Halu,40.64389296,22.91975242
Panorama,165,33,2,1,1,1,TRUE,FALSE,4.81,27,Konstantinos,40.60925,22.97331
Panorama,440,88,2,1,1,1,TRUE,FALSE,,10,Dimitra,40.5669,22.9574
Panorama,360,72,3,2,1,1,TRUE,FALSE,4.19,3,Nilie Premium Hospitality MGMT,40.6078,22.963
Panorama,270,54,2,1,1,1,TRUE,FALSE,4.91,3,CityCube,40.629,22.9513
Panorama,320,64,3,2,1,1,TRUE,FALSE,4.71,7,Cristina And Tomas Skgbnb,40.61021,22.95957
Panorama,225,45,4,2,1,1,TRUE,FALSE,4.69,13,The Fox'S Lair,40.638,22.9386
Panorama,370,74,4,1,1,1,TRUE,FALSE,4.85,5,Cristina And Tomas Skgbnb,40.59602881,22.98602206
Panorama,,0,3,3,,1,TRUE,FALSE,4.63,16,Σμαραγδα,40.6326,22.9516
Panorama,3498.98,117,5,2,2,1,TRUE,FALSE,4.97,8,Katerina,40.5728,22.967
Panorama,997.63,33,2,1,1,1,TRUE,FALSE,4.33,3,Ilias,40.65007216,22.93960083
Panorama,901.83,30,2,1,1,1,TRUE,FALSE,0,,Mixalis,40.64311,22.85905
Panorama,1301.72,43,2,1,1,1,TRUE,FALSE,4.21,14,Elina,40.63890058,22.95039359
Panorama,2152.25,72,4,2,1,1,TRUE,FALSE,,2,Infinity Living,40.61892275,22.95962405
Panorama,1081.01,36,2,1,1,1,TRUE,FALSE,4.69,4,Ilias,40.64848,22.93794
Panorama,1689.9,56,2,1,1,1,TRUE,FALSE,4.71,3,Sofia,40.64452504,22.94383378
Panorama,3227.15,108,3,1,1,5,TRUE,FALSE,5,,Dimitris,40.60900243,22.99334174
Panorama,1170.99,39,2,1,1,1,TRUE,FALSE,4.74,20,Savas,40.6364,22.9594
Panorama,1848.73,62,3,1,1,1,TRUE,FALSE,4.57,14,Λενα Νου,40.61592616,22.95538138
Panorama,1941.83,65,3,2,1,1,TRUE,FALSE,4.56,27,Homevision,40.6358,22.9366
Panorama,2287.62,76,5,2,2,1,TRUE,FALSE,,3,Petrika,40.6051,22.9584
Panorama,1789.58,60,3,1,1,1,TRUE,FALSE,4.73,11,Homevision,40.618,22.958
Panorama,2551.8,85,3,1,1,1,TRUE,FALSE,4.75,4,Nana,40.6181,22.9775
Panorama,2900.93,97,8,2,2,1,TRUE,FALSE,4.74,2,Osher,40.6195,22.9581
Panorama,866.75,29,,1,,,TRUE,FALSE,,5,Πέτρος,40.6416,22.9391
Panorama,1748.08,58,2,1,1,1,TRUE,FALSE,,6,Fotini,40.644,22.9239
Panorama,1764.32,59,3,3,2,1,TRUE,FALSE,4.46,3,Maria,40.6213,22.9574
Panorama,698.49,23,,1,,,TRUE,FALSE,4.74,20,,40.6121,22.9739
Panorama,2082.16,69,4,2,2,1,TRUE,FALSE,,12,Xanthi,40.6085,22.9578
Panorama,1614.43,54,3,2,2,1,TRUE,FALSE,4.75,3,Angelis,40.6223,22.9613
Panorama,560.54,19,,1,,,TRUE,FALSE,4.35,17,,40.61086,22.97371
Panorama,2199.26,73,4,2,1,1,TRUE,TRUE,,22,Hristijan,40.6086,22.9558
Panorama,1960.39,65,5,3,2,1,TRUE,FALSE,,6,Ουρανία,40.6176,22.9598
Panorama,2243.11,75,3,2,1,1,TRUE,FALSE,5,,Γκατζελης Γιωργος,40.6056,22.9749
Panorama,,0,2,1,1,1,TRUE,FALSE,,4,Evangelos,40.6141,22.9662
Panorama,3328.34,111,4,2,2,2,TRUE,FALSE,4.87,5,Konstantinos,40.6002,22.9606
Panorama,,0,5,3,2,1,TRUE,FALSE,4.86,14,Ελενα,40.65427,22.9535
Panorama,2163.08,72,3,2,1,1,TRUE,FALSE,,2,Daisy,40.59414,22.95301
Panorama,2519.97,84,5,3,2,1,TRUE,FALSE,,8,Πηγή,40.61219,22.97668
Panorama,1504.53,50,2,1,1,1,TRUE,FALSE,,13,Xristina,40.6377,22.9553
Panorama,2225.09,74,3,2,2,1,TRUE,FALSE,,2,Nova Stores IKE,40.6394,22.9579
Panorama,1344.42,45,5,1,1,1,TRUE,FALSE,4.33,3,Τόνι,40.60678,22.97781
Panorama,,0,2,2,1,1,TRUE,FALSE,4.87,23,Χαρούλα,40.6288,23.04427
Panorama,4328.28,144,6,2,2,1,TRUE,FALSE,,4,Βασίλης,40.6,22.9673
Panorama,1140.31,38,4,1,1,1,TRUE,FALSE,4.36,11,Savas,40.6503,22.9376
Panorama,1174.08,39,4,1,1,1,TRUE,FALSE,4.25,4,Savas,40.6436,22.9389
Panorama,1199.29,40,3,2,1,1,TRUE,FALSE,4,,Metro Central Apartments,40.6441,22.9278
Panorama,1609.13,54,3,1,1,1,TRUE,FALSE,4.78,18,Room8 Suites,40.6367,22.9524
Panorama,1609.13,54,3,1,1,1,TRUE,FALSE,4.86,7,Room8 Suites,40.6367,22.9524
Panorama,1513.46,50,3,1,1,1,TRUE,FALSE,4.83,6,Room8 Suites,40.6367,22.9524
Panorama,1350.91,45,3,3,1,1,TRUE,FALSE,,5,Nikos,40.6385,22.936
Panorama,695.39,23,1,1,1,,TRUE,FALSE,4.93,15,City Space By Dimitrios,40.6395,22.9473
Panorama,1301.7,43,4,2,1,1,TRUE,FALSE,4.75,4,Irene,40.6204,22.9559
Panorama,2269.73,76,4,2,1,1,TRUE,FALSE,,3,Panagiota,40.6019,22.9571
Panorama,2994.33,100,4,3,2,1,TRUE,FALSE,4.75,4,Homevision,40.6308,22.9513
Panorama,3087.09,103,5,2,2,1,TRUE,FALSE,4.48,298,Halkidiki TravelPro Services,40.59822,22.96275
Panorama,3032.92,101,4,1,1,1,TRUE,FALSE,4.52,29,Elena,40.6042,22.9618
Panorama,1486.65,50,3,1,,1,TRUE,FALSE,4.41,737,Smart Plan,40.64119,22.93437
Panorama,1486.65,50,4,1,,1,TRUE,FALSE,4.41,2,Smart Plan,40.64077,22.93334
Panorama,1221.57,41,3,1,1,1,TRUE,FALSE,0,,Στυλιανος,40.6385,22.9551
Panorama,4863.66,162,6,2,2,1,TRUE,FALSE,4.75,24,G & G Apartments,40.6591,22.9449
Panorama,2155.08,72,2,1,1,1,TRUE,FALSE,5,,Marialena,40.6153,22.9635
Panorama,3291.08,110,4,2,2,1,TRUE,FALSE,4.43,14,Natassa,40.6068,22.958
Panorama,1190.48,40,4,2,1,1,TRUE,FALSE,4.56,6,Ιωαννης,40.64117,22.93385
Panorama,1055.96,35,3,1,1,1,TRUE,FALSE,4.72,64,Georgios,40.6446,22.9236
Panorama,1682.33,56,2,1,1,1,TRUE,FALSE,,10,Κώστας,40.59620536,22.96445134
Panorama,1315.38,44,2,1,1,1,TRUE,FALSE,0,,Nikolas,40.63063391,22.96703111
Panorama,1592.62,53,2,1,1,1,TRUE,FALSE,4.38,633,Maryland,40.6093,22.9619
Panorama,975.19,33,2,1,1,,TRUE,FALSE,,2,Αθανασιος,40.6424,22.9314
Panorama,1231.58,41,3,2,1,1,TRUE,FALSE,5,,Alex And Theodora,40.5879,22.9567
Panorama,,0,3,2,1,1,TRUE,FALSE,5,,Vicky,40.63748104,22.95310555
Panorama,2344.16,78,2,1,1,1,TRUE,FALSE,4.19,553,Nilie Premium Hospitality MGMT,40.63418,22.94489
Panorama,1990.8,66,2,1,1,1,TRUE,FALSE,4.83,12,Panos,40.6315,22.9514
Panorama,2656.79,89,5,3,2,1,TRUE,FALSE,4.76,51,Lidor,40.64289,22.94234
Panorama,1793.79,60,3,2,2,1,TRUE,FALSE,,2,Λουκια,40.6152,22.9568
Panorama,2832.23,94,6,6,3,5,TRUE,FALSE,5,,Ανδρομαχη,40.63074,22.94522
Panorama,2937.47,98,5,3,2,1,TRUE,FALSE,4.94,3,Benjmin,40.61888,22.96019
Panorama,2694.23,90,6,3,2,1,TRUE,FALSE,0,,Bahar,40.635,22.9363
Panorama,1028.01,34,4,1,1,1,TRUE,FALSE,4.56,32,Paolo,40.63522,22.96172
Panorama,3352.29,112,5,3,2,1,TRUE,FALSE,4.75,24,G & G Apartments,40.5998,22.963
Panorama,2544.73,85,6,3,2,1,TRUE,FALSE,5,,Flixbnb,40.6389,22.9419
Panorama,1641.3,55,1,1,1,,TRUE,FALSE,4.89,64,Helena,40.583481,22.95984575
Panorama,2439.35,81,3,2,1,1,TRUE,FALSE,4.97,322,Reef Home,40.6313,22.9429
Panorama,1738.64,58,3,2,1,1,TRUE,FALSE,0,,Άγης,40.6152,22.9613
Panorama,1889.97,63,5,1,1,1,TRUE,FALSE,0,,Elli,40.64953,22.93102
Panorama,2447.12,82,5,2,2,1,TRUE,FALSE,4.86,264,Georgios,40.6388,22.9413
Panorama,,0,,1,,,TRUE,FALSE,4.71,14,,40.64946,22.93312
Panorama,1567,52,2,1,1,1,TRUE,FALSE,4.73,33,Georgio,40.6342,22.942
Panorama,1500.4,50,4,2,1,1,TRUE,FALSE,4.85,330,Sakis & Katerina,40.6287,22.9504
Panorama,1355.39,45,4,1,1,1,TRUE,FALSE,4.89,18,Panos - Maria,40.62935,22.96833
Panorama,2179.09,73,4,3,2,1,TRUE,FALSE,4.75,103,Giorgos,40.58489,22.96593
Panorama,1370.93,46,3,2,2,1,TRUE,FALSE,4.72,18,Dimitris,40.6183,22.9554
Panorama,1459.35,49,3,1,1,5,TRUE,FALSE,4.87,83,Nana,40.61136,22.96299
Panorama,1143.78,38,4,3,,1,TRUE,FALSE,4.91,248,Luciano  Despina,40.6687,22.9151
Panorama,2124.07,71,3,2,1,1,TRUE,FALSE,4.84,122,Ελευθερία,40.584,22.9533
Panorama,2745.33,92,3,1,1,1,TRUE,FALSE,4.74,27,Dimitris,40.6016,22.9537
Panorama,2850.92,95,4,2,2,1,TRUE,FALSE,4.77,137,Angelos,40.6094,22.9536
Panorama,1159.13,39,2,1,,1,TRUE,FALSE,5,,Lefteris,40.636,22.9531
Panorama,1149.19,38,1,2,1,1,TRUE,FALSE,4.61,41,Ευαγγελια,40.60486,22.9641
Panorama,1749.45,58,4,2,1,1,TRUE,FALSE,4.88,133,Cristina And Tomas Skgbnb,40.615,22.95646
Panorama,2360.06,79,4,2,1,1,TRUE,FALSE,4.85,106,Cristina And Tomas Skgbnb,40.61676,22.9568
Panorama,,0,2,1,1,1,TRUE,FALSE,4.87,30,Theologos,40.5842,22.96824
Panorama,,0,4,2,1,1,TRUE,FALSE,4.53,141,Filitsa,40.60826,22.96228
Panorama,2403.83,80,5,3,2,1,TRUE,FALSE,4.94,32,Shukri,40.59539,22.96608
Panorama,2335.07,78,4,2,2,1,TRUE,FALSE,4.98,80,Στέλλα,40.6105,22.9562
Panorama,2180.8,73,3,1,1,1,TRUE,FALSE,,5,Αναστάσιος,40.72,22.905
Panorama,1955.92,65,4,2,1,1,TRUE,FALSE,4.96,72,Martha,40.63,22.9506
Panorama,1705.16,57,3,2,1,1,TRUE,FALSE,4.64,72,Thess1home Apartments,40.59953,22.95316
Panorama,1978.71,66,4,3,1,1,TRUE,FALSE,4.74,38,Thess1home Apartments,40.59874,22.95383
Panorama,1600.9,53,6,5,1,1,TRUE,FALSE,,37,Ελισάβετ,40.637,22.9491
Panorama,990.69,33,3,2,1,1,TRUE,FALSE,4.66,93,Alex,40.6422,22.9469
Panorama,,0,3,2,1,1,TRUE,FALSE,4.74,44,Georgia,40.6128,22.9751
Panorama,1252.76,42,3,2,1,1,TRUE,FALSE,4.74,79,Georgia,40.6128,22.9751
Panorama,1328.74,44,4,2,1,1,TRUE,FALSE,,89,Antonios,40.6102,22.9541
Panorama,1520.53,51,2,1,,1,TRUE,FALSE,4.82,242,Paraskevi,40.6415,22.9363
Panorama,1741.85,58,4,2,1,1,TRUE,FALSE,4.75,71,Maria,40.5985,22.9554
Panorama,3794.31,126,7,5,3,1,TRUE,FALSE,4.98,90,Λουκία,40.5791,23.0234
Panorama,2172.43,72,3,1,1,1,TRUE,FALSE,4.65,31,Dimitris,40.6105,22.955
Panorama,1488.87,50,3,2,1,1,TRUE,FALSE,4.97,180,Γιώργος,40.63675,22.95583
Panorama,1785.79,60,5,3,1,1,TRUE,FALSE,4.85,21,Betty Aslanis,40.4734,23.0922
Panorama,1615.1,54,2,2,,1,TRUE,FALSE,4.79,90,Rebeka,40.5813,22.94642
Panorama,1217.39,41,2,1,1,1,TRUE,FALSE,4.81,131,Natasa,40.62995,22.94831
Panorama,1531.38,51,3,1,1,1,TRUE,FALSE,4.84,62,Cristina And Tomas Skgbnb,40.63874,22.9382
Panorama,1580.53,53,4,1,1,1,TRUE,FALSE,4.84,182,Ntemi And Nick,40.63976,22.95393
Panorama,1910.84,64,5,2,2,5,TRUE,FALSE,4.98,80,Drosia,40.5847,22.9625
Panorama,1092.88,36,2,1,1,1,TRUE,FALSE,4.61,76,Natasa,40.63446,22.95063
Panorama,1778.57,59,2,1,,1,TRUE,FALSE,4.87,101,Athanasios,40.63387,22.94761
Panorama,,0,4,3,3,2,TRUE,FALSE,4.94,19,Olivia,40.59683,22.95394
Panorama,1346.59,45,4,2,1,1,TRUE,FALSE,4.81,98,Antonios,40.6107,22.9538
Panorama,1287.47,43,2,1,1,1,TRUE,FALSE,4.91,147,Giorgos,40.6069,22.9641
Panorama,1422.46,47,2,1,1,1,TRUE,FALSE,4.85,145,Raoul-Ernesto,40.6119,22.9742
Panorama,1262.28,42,2,1,,1,TRUE,FALSE,4.47,171,The Luxury Suites,40.63792,22.93654
Panorama,1637.08,55,3,1,1,1,TRUE,FALSE,4.71,78,Apostolos,40.63474,22.94606
Panorama,1519.26,51,4,2,1,1,TRUE,FALSE,4.87,92,Nandia,40.591,23.0083
Panorama,1800.86,60,6,3,2,1,TRUE,FALSE,4.83,52,Anastasios,40.64157,22.93698
Panorama,1584.37,53,4,2,1,1,TRUE,FALSE,4.61,152,Dimitris,40.63865,22.9376
Panorama,1314.53,44,2,1,1,1,TRUE,FALSE,4.89,103,Cuckoobnb,40.60836,22.9785
Panorama,1039.03,35,3,3,1,1,TRUE,FALSE,4.86,221,Yannis,40.6394,22.9378
Panorama,2301.85,77,6,3,2,1,TRUE,FALSE,4.57,87,Anastasia,40.6309,22.9478
Panorama,1403.18,47,5,2,1,1,TRUE,FALSE,,70,Ioannis,40.616,22.9786
Panorama,1296.57,43,2,1,,1,TRUE,FALSE,4.96,38,Stella,40.4992,22.8755
Panorama,2907.67,97,5,3,3,5,TRUE,FALSE,4.85,49,Cristina And Tomas Skgbnb,40.63127,22.96244
Panorama,3020.3,101,4,2,2,1,TRUE,FALSE,4.78,23,Dimitra,40.5863,22.9657
Panorama,1422.46,47,2,1,1,5,TRUE,FALSE,4.66,119,Raoul-Ernesto,40.6125,22.9728
Panorama,2700.95,90,2,1,1,5,TRUE,FALSE,,4,Marina,40.58298,23.03069
Panorama,2348.7,78,2,2,1,1,TRUE,FALSE,4.82,49,Konstantinos,40.6009,22.9504
Panorama,1255.61,42,4,2,1,1,TRUE,FALSE,4.78,18,Αναστάσης,40.63491,22.95273
Panorama,914.84,30,3,2,2,1,TRUE,FALSE,4.75,49,Cristina And Tomas Skgbnb,40.64763,22.94309
Panorama,1500.07,50,4,2,1,1,TRUE,FALSE,4.33,134,The Luxury Suites,40.63846,22.94065
Panorama,1111.59,37,2,1,1,5,TRUE,FALSE,4.79,52,Natasa,40.63448,22.9384
Panorama,1464.85,49,4,2,1,1,TRUE,FALSE,4.57,128,The Luxury Suites,40.63905,22.93589
Panorama,1470.28,49,2,1,1,1,TRUE,FALSE,4.92,12,Olga,40.64067,22.95544
Panorama,1320.61,44,2,2,1,1,TRUE,FALSE,4.55,11,Maria,40.64119,22.94792
Panorama,1255.31,42,4,2,1,1,TRUE,FALSE,4.68,53,Panos,40.63784,22.93627
Panorama,1842.12,61,6,3,2,1,TRUE,FALSE,4.75,208,Dimitrios & Fani,40.6068,22.9522
Panorama,1200.6,40,3,2,,1,TRUE,FALSE,4.88,68,Panos,40.6395,22.93875
Panorama,1145.26,38,3,1,1,1,TRUE,FALSE,4.83,40,Georgios,40.64108,22.94997
Panorama,1386.43,46,2,1,1,1,TRUE,FALSE,4.87,45,Cristina And Tomas Skgbnb,40.64198,22.94183
Panorama,1651.11,55,2,1,1,1,TRUE,FALSE,4.85,187,Katerina,40.64211,22.93686
Panorama,1193.23,40,2,1,1,1,TRUE,FALSE,4.61,54,Maria,40.63921,22.94975
Panorama,2524.14,84,3,1,1,1,TRUE,FALSE,4.85,68,Ελευθερία,40.584,22.9533
Panorama,1435.27,48,4,2,1,1,TRUE,FALSE,4.52,69,The Luxury Suites,40.63841,22.93789
Panorama,1335.66,45,3,2,,1,TRUE,FALSE,4.56,112,The Luxury Suites,40.63763,22.93816
Panorama,1363.72,45,4,3,2,1,TRUE,FALSE,4.31,16,Βενέρα,40.66373,22.91066
Panorama,1093.47,36,2,2,,1,TRUE,FALSE,4.64,11,Ioannis,40.6342,22.9459
Panorama,1783.73,59,2,2,1,5,TRUE,FALSE,4.95,20,Ολγα,40.7273,22.9263
Panorama,1399.69,47,5,2,1,5,TRUE,FALSE,4.81,32,Petros,40.6009,22.9945
Panorama,1721.84,57,4,2,1,1,TRUE,FALSE,4.77,138,My Street,40.63791,22.938
Panorama,2056.9,69,4,2,1,1,TRUE,FALSE,4.84,128,My Street,40.63996,22.93889
Panorama,1227.74,41,2,1,1,1,TRUE,FALSE,4.88,48,Helias,40.60931,22.97739
Panorama,1114.99,37,2,1,1,1,TRUE,FALSE,4.53,34,Helias,40.60733,22.97697
Panorama,3008.51,100,5,2,2,1,TRUE,FALSE,4.97,34,Matsoukakos,40.59841,22.95365
Panorama,1487.42,50,3,2,1,1,TRUE,FALSE,,20,Δέσποινα,40.6466,22.9255
Panorama,1784.29,59,4,2,1,1,TRUE,FALSE,4.92,51,Παναγιωτης,40.603,22.9689
Panorama,2680.8,89,5,3,1,1,TRUE,FALSE,4.97,118,Matoula,40.5888,22.9607
Panorama,2301.86,77,2,2,1,1,TRUE,FALSE,4.95,19,Sofia,40.5734,22.9555
Panorama,1333.56,44,4,1,1,1,TRUE,FALSE,4.55,22,Maria,40.6398,23.0303
Panorama,2932.82,98,6,4,2,1,TRUE,FALSE,,11,Vasilis,40.6232,22.9743
Panorama,2080.43,69,4,3,1,1,TRUE,FALSE,4.87,90,Georgios,40.6836,22.9486
Panorama,1541,51,2,1,1,1,TRUE,FALSE,4.93,81,Dimitris,40.6755,22.8994
Panorama,2544.98,85,4,2,1,1,TRUE,FALSE,4.82,12,Marija,40.5064,22.9162
Panorama,2124.89,71,4,2,1,1,TRUE,FALSE,4.74,117,Mariana,40.63567,22.95231
Panorama,1321.4,44,2,1,1,1,TRUE,FALSE,4.92,39,Βαία,40.6347,22.9536
Panorama,1777.56,59,3,3,1,1,TRUE,FALSE,4.89,66,Βασιλειος,40.58711,22.9699
Panorama,1317.11,44,2,1,1,1,TRUE,FALSE,4.36,28,Κωνσταντίνος,40.5875,22.9571
Panorama,1346.78,45,2,1,,1,TRUE,FALSE,4.51,70,The Luxury Suites,40.63784,22.93767
Panorama,1798.25,60,5,3,2,1,TRUE,FALSE,4.92,37,Effie,40.6523,22.9546
Panorama,1391.64,46,3,2,,1,TRUE,FALSE,4.66,47,The Luxury Suites,40.64205,22.93653
Panorama,1305.38,44,3,2,,1,TRUE,FALSE,4.66,90,The Luxury Suites,40.64084,22.93632
Panorama,1463.81,49,4,2,1,1,TRUE,FALSE,4.64,113,The Luxury Suites,40.63766,22.93743
Panorama,1297.38,43,3,2,1,1,TRUE,FALSE,4.93,30,Natasa,40.6345,22.9489
Panorama,1511.17,50,4,2,1,1,TRUE,FALSE,4.69,4,Ilias,40.6473,22.9349
Panorama,1836.68,61,4,2,1,1,TRUE,FALSE,4.85,13,Cristina And Tomas Skgbnb,40.61932,22.95841
Panorama,1477.59,49,4,2,1,1,TRUE,FALSE,4.79,57,Maria,40.6396,22.9387
Panorama,1448.84,48,4,1,1,1,TRUE,FALSE,4.84,62,Ioannis,40.61886,22.9599
Panorama,1648.36,55,3,2,1,1,TRUE,FALSE,4.87,38,Aimilios,40.58279,22.9658
Panorama,2022.5,67,3,1,1,1,TRUE,FALSE,4.98,15,Ηλίας,40.61517,22.96919
Panorama,861.69,29,3,2,1,1,TRUE,FALSE,4.75,8,Θεοχαρης,40.66167,22.95243
Panorama,804.24,27,2,1,1,1,TRUE,FALSE,4.64,11,Blackdotrooms,40.641,22.9374
Panorama,3288.73,110,4,2,2,1,TRUE,FALSE,4.95,79,Vassilis,40.5994,22.9757
Panorama,,0,6,5,2,5,TRUE,FALSE,4.83,6,Sophie,40.4896,22.9518
Panorama,1698.25,57,3,1,2,1,TRUE,FALSE,4.81,86,Φιλιππια,40.60216,22.95554
Panorama,1008.87,34,2,1,1,1,TRUE,FALSE,4.73,11,Ana,40.6425,22.9461
Panorama,2562.08,85,4,2,1,1,TRUE,FALSE,4.84,151,Ioanna Apartments,40.6187,22.9614
Panorama,2400.89,80,4,2,1,1,TRUE,FALSE,4.81,135,Ioanna Apartments,40.6187,22.9614
Panorama,1338.43,45,2,1,,1,TRUE,FALSE,4.71,101,The Luxury Suites,40.64196,22.93241
Panorama,1338.43,45,2,1,,1,TRUE,FALSE,4.83,98,The Luxury Suites,40.64129,22.93261
Panorama,1338.43,45,2,1,,1,TRUE,FALSE,4.71,78,The Luxury Suites,40.64064,22.93317
Panorama,1778.32,59,4,1,1,1,TRUE,FALSE,4.54,104,Desen Hospitality,40.63492,22.93985
Panorama,1254.71,42,2,1,1,1,TRUE,FALSE,4.69,10,Ilias,40.6422,22.9302
Panorama,1898.28,63,4,1,1,1,TRUE,FALSE,,6,Vasiliki,40.6421,22.9609
Panorama,3429.63,114,4,2,2,1,TRUE,FALSE,4.88,8,Olga,40.49118,23.02299
Panorama,1839.13,61,4,2,1,1,TRUE,FALSE,,41,Dimitris,40.6068,22.9579
Panorama,,0,2,1,1,1,TRUE,FALSE,4.93,168,Despoina,40.6415,22.9361
Panorama,1541.55,51,4,1,1,1,TRUE,FALSE,5,,Ελενη,40.6382,22.9446
Panorama,926.55,31,2,1,1,1,TRUE,FALSE,,29,Σεβη,40.6535,22.9535
Panorama,1729.1,58,4,2,1,1,TRUE,FALSE,4.53,30,The Luxury Suites,40.63914,22.93775
Panorama,1660.06,55,3,2,1,1,TRUE,FALSE,,5,Ioanna,40.62988,22.96578
Panorama,2103.2,70,2,1,1,1,TRUE,FALSE,4.76,136,Mario,40.63287,22.94813
Panorama,1013.96,34,3,2,1,1,TRUE,FALSE,4.67,6,Theodoros,40.6185,22.9595
Kalamaria,380,76,4,2,3,1,TRUE,FALSE,4.91,265,Γιάννης,40.5847,22.9547
Kalamaria,392,79,5,2,2,1,TRUE,FALSE,4.98,176,Stavros,40.57954,22.94674
Kalamaria,368,74,3,1,1,1,TRUE,FALSE,4.89,66,Βασιλειος,40.58711,22.9699
Kalamaria,490,98,3,1,2,1,TRUE,FALSE,4.91,56,Παντελεημων,40.5813,22.9512
Kalamaria,324,65,2,1,1,1,TRUE,FALSE,4.96,23,Roula,40.57795,22.95312
Kalamaria,453,91,2,1,1,1,TRUE,FALSE,4.88,85,Ελευθερία,40.5843,22.9533
Kalamaria,290,58,2,1,1,1,TRUE,FALSE,4.62,77,Βασίλης Μπουλακης,40.59001,22.96456
Kalamaria,521,105,3,1,1,1,TRUE,FALSE,5,18,Vasileios,40.583,22.951
Kalamaria,372,75,4,1,1,1,TRUE,FALSE,4.93,61,Dimitris,40.5847,22.9476
Kalamaria,469,94,4,1,2,1,TRUE,FALSE,4.93,15,Panagiota,40.58360189,22.95355441
Kalamaria,294,59,4,1,1,1,TRUE,FALSE,4.69,58,Αφροδίτη,40.5837,22.9514
Kalamaria,459,92,3,1,1,1,TRUE,FALSE,4.85,20,Αναστασία,40.5675,22.9611
Kalamaria,569,114,4,1,1,1,TRUE,FALSE,4.96,91,Matoula,40.5787,22.9454
Kalamaria,402,81,2,1,1,1,TRUE,FALSE,4.9,30,ProLiving Hospitality,40.59528,22.95653
Kalamaria,546,110,4,2,,1,TRUE,FALSE,5,16,Παναγιωτά,40.5867,22.9546
Kalamaria,442,89,32,1,1,1,TRUE,FALSE,5,5,Dimitris,40.57771125,22.95203892
Kalamaria,404,81,2,1,1,1,TRUE,FALSE,4.77,138,Stathis,40.5835,22.9575
Kalamaria,388,78,3,1,2,1,TRUE,FALSE,4.89,66,Dimitrios,40.59126,22.96709
Kalamaria,302,61,3,1,1,1,TRUE,FALSE,5,1,Alex And Theodora,40.5879,22.9567
Kalamaria,312,63,3,1,2,1,TRUE,FALSE,4.84,135,John,40.59188,22.96074
Kalamaria,564,113,6,2,5,1,TRUE,FALSE,4.89,62,Alexandros,40.5759,22.9494
Kalamaria,325,65,4,1,1,1,TRUE,FALSE,4.96,49,Orfeas,40.5672,22.9636
Kalamaria,451,91,4,1,1,1,TRUE,FALSE,4.97,35,Σωτηρία,40.5856,22.9513
Kalamaria,324,65,2,1,1,1,TRUE,FALSE,4.86,37,Κυριάκος,40.58971,22.96303
Kalamaria,432,87,2,,1,1,TRUE,FALSE,4.68,2,Svetlana,40.58153,22.94623
Kalamaria,414,83,2,1,1,1,TRUE,FALSE,5,7,ProLiving Hospitality,40.59569,22.95543
Kalamaria,509,102,5,1,3,1,TRUE,FALSE,4.92,60,Thess1home Apartments,40.5828,22.9474
Kalamaria,529,106,5,2,2,1,TRUE,FALSE,4.9,10,Μαρια,40.58182,22.95557
Kalamaria,361,73,6,2,2,,TRUE,FALSE,4.86,70,Ioanna,40.56893,22.96022
Kalamaria,457,92,2,1,1,1,TRUE,FALSE,,,Magda,40.56981056,22.96936907
Kalamaria,349,70,1,1,1,1,TRUE,FALSE,5,1,Νίνα,40.5889,22.948
Kalamaria,541,109,5,2,2,,TRUE,FALSE,4.98,80,Drosia,40.5847,22.9625
Kalamaria,434,87,4,1,2,1,TRUE,FALSE,4.85,84,Olga,40.5976,22.9562
Kalamaria,429,86,4,1,1,1,TRUE,FALSE,4.9,133,Χρήστος,40.57644,22.94653
Kalamaria,408,82,4,2,3,1,TRUE,FALSE,4.84,148,Βαγγελης,40.59114,22.95479
Kalamaria,352,71,2,1,1,1,TRUE,FALSE,4.93,68,Nikolaos,40.60379044,22.96198642
Kalamaria,594,119,4,2,2,1,TRUE,FALSE,4.9,63,Theofanis,40.58873,22.94847
Kalamaria,558,112,5,2,3,1,TRUE,FALSE,4.88,34,Maria,40.5805,22.9489
Kalamaria,400,80,3,1,1,1,TRUE,FALSE,4.92,13,Σκαρλατος,40.5754,22.9503
Kalamaria,432,87,4,1,1,1,TRUE,FALSE,4.76,101,Alba Katerina,40.577,22.9533
Kalamaria,335,67,2,1,2,1,TRUE,FALSE,4.87,15,Angeliki,40.58602,22.96504
Kalamaria,281,57,4,1,1,1,TRUE,FALSE,4.97,62,Christina,40.57243,22.9537
Kalamaria,466,94,2,1,1,1,TRUE,FALSE,5,33,ProLiving Hospitality,40.5955,22.95651
Kalamaria,523,105,2,1,1,1,TRUE,FALSE,4.61,38,Mario,40.6282,22.9523
Kalamaria,676,136,8,2,3,,TRUE,FALSE,4.87,158,Eugenia & Giota,40.57341,22.96052
Kalamaria,718,144,32,2,4,1,TRUE,FALSE,4.93,91,Αναστασία,40.5898,22.9461
Kalamaria,337,68,2,1,1,1,TRUE,FALSE,4.89,74,Laonikos Apartments/ Your Host: Zeta,40.6002,22.9534
Kalamaria,465,93,3,1,1,1,TRUE,FALSE,4.84,122,Ελευθερία,40.584,22.9533
Kalamaria,475,95,2,1,1,1,TRUE,FALSE,4.9,30,ProLiving Hospitality,40.594,22.956
Kalamaria,420,84,4,1,1,1,TRUE,FALSE,4.93,14,Αγάπη,40.5862,22.9563
Kalamaria,512,103,4,1,1,1,TRUE,FALSE,5,5,Ζωή,40.5835,22.9659
Kalamaria,371,75,3,1,2,1,TRUE,FALSE,4.89,53,Georgios,40.5943,22.9511
Kalamaria,328,66,2,2,2,1,TRUE,FALSE,4.79,90,Rebeka,40.5813,22.94642
Kalamaria,413,83,3,1,1,1,TRUE,FALSE,4.67,9,Angel'S Brand New Studio,40.5886,22.9634
Kalamaria,353,71,2,1,1,1,TRUE,FALSE,5,10,Κώστας,40.59620536,22.96445134
Kalamaria,535,107,6,2,1,1,TRUE,FALSE,4.93,105,Eva,40.57771,22.9471
Kalamaria,478,96,4,2,3,1,TRUE,FALSE,4.79,14,Kaliopis Family House,40.58314,22.95701
Kalamaria,889,178,4,1,1,1,TRUE,FALSE,5,17,Pavlos,40.6412,22.9565
Kalamaria,494,99,6,2,1,1,TRUE,FALSE,4.94,18,Κωνσταντίνος,40.5749,22.9525
Kalamaria,441,89,3,1,,,TRUE,FALSE,4.92,49,Erasmia,40.58277,22.94945
Kalamaria,482,97,4,1,2,1,TRUE,FALSE,4.93,75,Παρασκευή,40.58933,22.95091
Kalamaria,365,73,5,2,2,1,TRUE,FALSE,4.85,34,Dimitris,40.5775,22.9524
Kalamaria,1335,267,6,3,3,,TRUE,FALSE,5,14,BiNoBi,40.575,22.9485
Kalamaria,434,87,2,1,1,1,TRUE,FALSE,4.81,16,ProLiving Hospitality,40.59538,22.9562
Kalamaria,516,104,3,1,1,1,TRUE,FALSE,4.85,68,Ελευθερία,40.584,22.9533
Kalamaria,538,108,4,2,2,1,TRUE,FALSE,5,7,ProLiving Hospitality,40.59376,22.95686
Kalamaria,492,99,3,1,1,1,TRUE,FALSE,4.98,40,Stella,40.57325,22.94953
Kalamaria,515,103,4,2,2,1,TRUE,FALSE,5,13,Anna,40.5821,22.9517
Kalamaria,664,133,5,3,3,2,TRUE,FALSE,5,30,Patroklos,40.57469,22.96693
Kalamaria,522,105,3,2,3,1,TRUE,FALSE,5,53,Patroklos,40.5781,22.95186
Kalamaria,473,95,2,1,1,1,TRUE,FALSE,4.85,20,ProLiving Hospitality,40.59501,22.95488
Kalamaria,406,82,3,1,2,1,TRUE,FALSE,4.91,34,Dimitrios,40.59143,22.96748
Kalamaria,446,90,4,1,2,1,TRUE,FALSE,4.94,86,Innovation,40.60491,22.95141
Kalamaria,256,52,1,1,1,1,TRUE,FALSE,4.89,1,Helena,40.583481,22.95984575
Kalamaria,599,120,6,2,1,1,TRUE,FALSE,4.73,11,Alexandros,40.5794,22.949
Kalamaria,290,58,4,1,1,2,TRUE,FALSE,4.64,14,Ειρήνη,40.61452,22.95951
Kalamaria,427,86,4,1,2,1,TRUE,FALSE,4.98,144,Robert-Jan,40.50243,22.90048
Kalamaria,622,125,5,2,3,,TRUE,FALSE,5,35,Polyxeni,40.57155,22.95939
Kalamaria,435,87,4,1,2,1,TRUE,FALSE,4.94,17,Zana,40.58700301,22.96270383
Kalamaria,349,70,3,,,1,TRUE,FALSE,4.87,179,Welcome Home Suites,40.61944,22.9573
Kalamaria,688,138,6,2,3,1,TRUE,FALSE,5,8,Εva,40.5762,22.9531
Kalamaria,593,119,4,1,1,,TRUE,FALSE,5,56,Katerina,40.57608,22.96408
Kalamaria,1013,203,4,1,2,1,TRUE,FALSE,4.67,36,Dimitris,40.5839,22.9536
Kalamaria,380,76,2,1,1,1,TRUE,FALSE,5,7,Marabou Unique Stay,40.6386,22.9378
Kalamaria,411,83,2,1,1,1,TRUE,FALSE,4.95,19,Sofia,40.5734,22.9555
Kalamaria,1050,210,10,4,1,2,TRUE,FALSE,4,15,Houseloft,40.5855,22.9535
Kalamaria,645,129,4,1,1,1,TRUE,FALSE,4.84,51,Maria,40.59075,22.94661
Kalamaria,380,76,2,1,1,1,TRUE,FALSE,,,Ilona,40.57691,22.94963
Kalamaria,448,90,6,2,3,1,TRUE,FALSE,4.5,6,Vidosav,40.5704,22.9718
Kalamaria,800,160,4,2,2,1,TRUE,FALSE,4.91,47,Dimitris,40.5874,22.9552
Kalamaria,342,69,4,2,2,1,TRUE,FALSE,5,3,Andreas,40.5873,22.9635
Kalamaria,269,54,2,1,1,1,TRUE,FALSE,4.52,101,Halu,40.61738,22.96212
Kalamaria,136,28,,1,1,,TRUE,FALSE,4.86,63,,40.5746,22.96
Kalamaria,526,106,4,1,3,1,TRUE,FALSE,5,13,Maria,40.5901,22.9498
Kalamaria,605,121,6,2,1,1,TRUE,FALSE,5,5,Χρήστος,40.5742,22.95183
Kalamaria,556,112,5,2,3,1,TRUE,FALSE,4.75,1,G & G Apartments,40.5998,22.963
Kalamaria,575,115,5,1,1,1,TRUE,FALSE,4.97,118,Matoula,40.5888,22.9607
Kalamaria,523,105,6,3,5,2,TRUE,FALSE,4.86,94,Akis,40.59593,22.9548
Kalamaria,341,69,2,1,1,1,TRUE,FALSE,4.85,187,Katerina,40.64211,22.93686
Kalamaria,447,90,4,1,2,1,TRUE,FALSE,4.79,28,Sohos Traditional Homes,40.61197,22.95576
Kalamaria,790,158,4,,1,1,TRUE,FALSE,4.95,20,Natali,40.638,22.9387
Kalamaria,274,55,2,1,1,1,TRUE,FALSE,5,14,Athanassios,40.61,22.9615
Kalamaria,259,52,6,3,3,1,TRUE,FALSE,4.89,386,Nikos,40.58835,22.94207
Kalamaria,605,121,5,2,3,1,TRUE,FALSE,4.76,51,Lidor,40.64289,22.94234
Kalamaria,252,51,2,1,1,1,TRUE,FALSE,5,1,Vasilis,40.647,22.9225
Kalamaria,516,104,6,2,1,1,TRUE,FALSE,3.2,5,Houseloft,40.5861,22.95
Kalamaria,330,66,3,1,1,1,TRUE,FALSE,4.91,34,Αντώνιος-Πηνελόπη,40.58539,22.96842
Kalamaria,528,106,3,1,1,1,TRUE,FALSE,4.81,113,Γεωργιος,40.56968,22.96774
Kalamaria,528,106,3,1,1,1,TRUE,FALSE,4.81,113,Γεωργιος,40.56968,22.96774
Kalamaria,324,65,4,1,2,,TRUE,FALSE,4.93,177,Ελευθερία,40.60904,22.96009
Kalamaria,310,62,3,1,1,1,TRUE,FALSE,4.98,100,Ελευθερία,40.608,22.975
Kalamaria,324,65,2,1,1,1,TRUE,FALSE,4.87,30,Theologos,40.5842,22.96824
Kalamaria,398,80,6,2,1,1,TRUE,FALSE,4.97,115,Ioannis,40.61625,22.97287
Kalamaria,711,143,5,2,1,1,TRUE,FALSE,4.94,89,Giorgos,40.5742,22.9496
Kalamaria,294,59,2,1,1,1,TRUE,FALSE,4.89,19,Κυριάκος,40.5887,22.9627
Kalamaria,495,99,7,2,,1,TRUE,FALSE,4.92,13,Χρήστος,40.5774,22.9462
Kalamaria,471,95,6,2,2,1,TRUE,FALSE,4.63,,Anastasios,40.5697,22.9561
Kalamaria,717,144,3,1,1,1,TRUE,FALSE,4.89,100,Anastasios-Vasileios,40.64049,22.96023
Kalamaria,346,70,3,1,1,1,TRUE,FALSE,4.77,105,Katerina,40.5986,22.9543
Kalamaria,300,60,3,1,2,1,TRUE,FALSE,4.86,57,Christina,40.58796,22.96472
Kalamaria,375,75,2,1,1,1,TRUE,FALSE,4.93,14,ProLiving Hospitality,40.5944,22.9556
Kalamaria,271,55,2,1,2,1,TRUE,FALSE,4.68,59,Xristina,40.57056,22.97171
Kalamaria,311,63,2,1,1,1,TRUE,FALSE,4.79,38,Vasiliki,40.60497,22.95394
Kalamaria,434,87,4,1,3,1,TRUE,FALSE,4.89,110,Olga,40.59385,22.98822
Kalamaria,190,38,2,,1,1,TRUE,FALSE,4.44,2,Vilfredo,40.6021,22.9728
Kalamaria,329,66,2,1,1,1,TRUE,FALSE,4.36,28,Κωνσταντίνος,40.5875,22.9571
Kalamaria,302,61,4,1,1,1,TRUE,FALSE,4.94,85,Κωνσταντίνος,40.6138,22.984
Kalamaria,585,117,3,2,2,1,TRUE,FALSE,5,3,Apostolos,40.6088,22.9548
Kalamaria,271,55,4,1,2,1,TRUE,FALSE,4.75,,Fotios,40.6349,22.9365
Kalamaria,380,76,5,3,3,1,TRUE,FALSE,4.96,194,Ria,40.6009,22.9755
Kalamaria,604,121,4,1,1,1,TRUE,FALSE,4.91,96,Innovation,40.60334,22.95186
Kalamaria,326,66,2,1,1,,TRUE,FALSE,4.95,21,Tasos,40.6055,22.968
Kalamaria,372,75,3,2,1,1,TRUE,FALSE,4.81,86,Φιλιππια,40.60216,22.95554
Kalamaria,384,77,3,1,2,1,TRUE,FALSE,4.65,17,Svetlana,40.58181,22.94632
Kalamaria,401,81,3,1,1,1,TRUE,FALSE,5,9,Dimitriadis,40.6094,22.9618
Kalamaria,302,61,3,1,2,1,TRUE,FALSE,4.64,14,Smart Plan,40.60545,22.95526
Kalamaria,338,68,4,1,,1,TRUE,FALSE,4.77,108,Sofia,40.6075,22.9599
Kalamaria,276,56,2,1,1,1,TRUE,FALSE,4.95,146,Eleni,40.59918,22.95918
Kalamaria,370,74,4,1,1,1,TRUE,FALSE,4.88,105,Ινεσσα,40.5979,22.9519
Kalamaria,267,54,4,1,1,,TRUE,FALSE,4.77,140,Georgios,40.6099,22.9602
Kalamaria,1314,263,6,2,1,1,TRUE,FALSE,4.81,21,Dimitris,40.572,22.9574
Kalamaria,290,58,4,1,1,1,TRUE,FALSE,4.71,24,Prodromos,40.6032,22.9629
Kalamaria,339,68,4,1,1,1,TRUE,FALSE,5,1,Lambis,40.6343,22.9369
Kalamaria,755,151,6,3,4,,TRUE,FALSE,4.92,12,Nikolaos,40.5775,22.9514
Kalamaria,505,101,4,1,1,1,TRUE,FALSE,5,32,Νικολαος,40.6132,22.9588
Kalamaria,682,137,6,3,3,2,TRUE,FALSE,4.97,31,Achilleas,40.58088,22.94898
Kalamaria,516,104,2,1,1,1,TRUE,FALSE,5,10,Dimitra,40.5669,22.9574
Kalamaria,407,82,3,1,1,1,TRUE,FALSE,4.89,9,Roy Living,40.6106,22.9589
Kalamaria,455,91,4,1,1,1,TRUE,FALSE,4.98,45,Sky Nomads,40.5965,22.9539
Kalamaria,305,61,4,1,2,1,TRUE,FALSE,4.89,81,Teo,40.63486,22.95276
Kalamaria,404,81,4,1,1,1,TRUE,FALSE,4.94,262,Chris,40.607,22.953
Kalamaria,423,85,2,1,1,1,TRUE,FALSE,4.79,48,BiNoBi,40.6119,22.9571
Kalamaria,277,56,4,1,1,1,TRUE,FALSE,5,5,⁨Kelly'S Airbnb (Μαγική Αυλή)⁩,40.6096,22.9626
Kalamaria,337,68,3,1,1,,TRUE,FALSE,4.81,148,Aspasia,40.60721,22.95435
Kalamaria,294,59,5,1,1,1,TRUE,FALSE,4.95,38,TheUrbanLoft,40.6503,22.9282
Kalamaria,480,96,3,1,1,1,TRUE,FALSE,4.95,138,Σπυριδων,40.54794,23.02532
Kalamaria,441,89,6,3,4,2,TRUE,FALSE,4.97,148,Helena,40.6043,22.9526
Kalamaria,375,75,4,1,2,1,TRUE,FALSE,4.92,115,Stella,40.6058,22.9562
Kalamaria,565,113,4,2,3,1,TRUE,FALSE,4.92,37,Ioannis,40.5746,22.9635
Kalamaria,461,93,5,2,3,1,TRUE,FALSE,4.83,29,Lidor,40.60705,22.95775
Kalamaria,353,71,4,1,2,,TRUE,FALSE,4.76,86,Nikos,40.61595,22.9747
Kalamaria,716,144,5,2,2,1,TRUE,FALSE,5,8,Katerina,40.5728,22.967
Kalamaria,376,76,4,1,1,1,TRUE,FALSE,4.91,87,Κωνσταντίνος,40.6053,22.9537
Kalamaria,213,43,2,,1,1,TRUE,FALSE,4.59,107,Andreas Anna,40.6141,22.9662
Kalamaria,558,112,5,1,1,1,TRUE,FALSE,4.97,71,Ioannis,40.5803,22.9524
Kalamaria,377,76,5,2,1,1,TRUE,FALSE,4.87,38,Asterios,40.5337824,22.99871418
Kalamaria,460,92,2,1,1,1,TRUE,FALSE,5,16,ProLiving Hospitality,40.59595954,22.95520633
Kalamaria,229,46,2,1,1,,TRUE,FALSE,4.9,192,Theodoros,40.66211,22.91335
Kalamaria,472,95,4,1,1,1,TRUE,FALSE,4.9,51,Sky Nomads,40.5965,22.9539
Kalamaria,422,85,6,2,1,1,TRUE,FALSE,4.92,65,Lina,40.61506,22.974
Kalamaria,371,75,4,1,1,1,TRUE,FALSE,4.95,179,Μαρία,40.60119,22.99372
Kalamaria,325,65,3,1,1,1,TRUE,FALSE,5,2,Christos,40.61284,22.9731
Kalamaria,444,89,9,2,1,1,TRUE,FALSE,4.92,12,Fotios,40.60227562,22.95261355
Kalamaria,327,66,4,1,1,1,TRUE,FALSE,5,5,Δημητρα,40.6102,22.9548
Kalamaria,293,59,2,1,1,1,TRUE,FALSE,4.85,131,Θεοδωρος,40.6202,22.962
Kalamaria,287,58,2,,1,1,TRUE,FALSE,4.66,340,Μαρια,40.50643,22.92769
Kalamaria,329,66,2,1,1,1,TRUE,FALSE,4.38,1,Maryland,40.6036,22.9622
Kalamaria,493,99,5,2,3,1,TRUE,FALSE,4.99,75,Giorgos,40.6062,22.9818
Kalamaria,488,98,4,1,,1,TRUE,FALSE,4.98,97,Αντώνης,40.49,22.8594
Kalamaria,386,78,5,1,1,1,TRUE,FALSE,4.87,112,Mario,40.6097,22.9629
Neapoli,317,64,3,1,2,1,TRUE,TRUE,4.92,64,Dimitrios,40.64397,22.95222
Neapoli,281,57,3,1,2,1.5,TRUE,TRUE,4.9,528,Μαρία,40.63214,22.94413
Neapoli,204,41,3,1,2,1,TRUE,FALSE,4.79,13,Sotirios,40.6452,22.9433
Neapoli,183,37,4,1,1,1,TRUE,FALSE,4.47,109,Anastasia,40.64301,22.94989
Neapoli,278,56,2,1,1,1,TRUE,TRUE,4.79,546,Alexandra,40.6318,22.9417
Neapoli,305,61,4,1,2,1,TRUE,TRUE,4.96,153,Konstantinos,40.64423,22.93777
Neapoli,346,70,6,2,2,1,TRUE,TRUE,4.92,282,Aimilios,40.63584,22.95374
Neapoli,285,57,2,1,1,1,TRUE,FALSE,4.86,11,Guy,40.63751,22.95035
Neapoli,328,66,2,1,1,1,TRUE,TRUE,4.93,25,Tania,40.6372,22.9365
Neapoli,246,50,2,1,2,1,TRUE,TRUE,4.75,147,Eleni,40.6369,22.95202
Neapoli,281,57,4,2,3,1,TRUE,FALSE,4.74,34,Dimitrios,40.645,22.93799
Neapoli,277,56,2,1,1,1,TRUE,FALSE,4.61,54,Maria,40.63921,22.94975
Neapoli,376,76,2,1,1,1,TRUE,TRUE,4.87,173,My Street,40.63987,22.93722
Neapoli,353,71,4,2,4,1,TRUE,FALSE,4.81,105,Ioanna Apartments,40.6389,22.9362
Neapoli,282,57,3,1,1,1,TRUE,FALSE,4.86,9,Georgios,40.64087059776268,22.949991
Neapoli,264,53,2,1,1,1,TRUE,TRUE,4.97,71,Maria,40.641,22.9527
Neapoli,329,66,3,1,1,1,TRUE,TRUE,4.87,21,Room8 Suites,40.6367,22.9524
Neapoli,392,79,2,1,1,1,TRUE,TRUE,4.92,21,Miltos,40.63008,22.94939
Neapoli,293,59,3,1,2,1.5,TRUE,TRUE,4.82,222,Simos,40.6393,22.9443
Neapoli,316,64,4,1,2,1,TRUE,FALSE,4.84,97,Innovation,40.63692,22.93642
Neapoli,234,47,2,1,2,1,TRUE,TRUE,4.65,31,Athanasios,40.63547,22.95003
Neapoli,267,54,3,1,2,1,TRUE,TRUE,4.9,271,Kleanthi,40.638,22.94786
Neapoli,394,79,4,1,2,1,TRUE,TRUE,4.73,117,Mariana,40.63567,22.95231
Neapoli,317,64,4,1,2,1,TRUE,TRUE,4.82,232,Ntemi And Nick,40.63982,22.94939
Neapoli,460,92,4,1,1,1,TRUE,TRUE,4.86,145,Ioannis And Christina Tzekou,40.63695,22.94411
Neapoli,226,46,3,1,2,1,TRUE,FALSE,4.73,26,Chrysovalantou,40.63530153158962,22.95227
Neapoli,305,61,4,1,2,1,TRUE,TRUE,4.96,166,Konstantinos,40.64224,22.93783
Neapoli,244,49,2,1,3,1,TRUE,FALSE,4.68,68,George,40.6345,22.9484
Neapoli,232,47,2,1,1,1,TRUE,TRUE,4.94,144,Dimitra Loukia,40.6419,22.9611
Neapoli,388,78,3,1,2,1,TRUE,TRUE,4.98,152,Kelly,40.64059,22.95602
Neapoli,283,57,4,1,4,1,TRUE,FALSE,4.86,94,Paraskevi,40.64085,22.9358
Neapoli,298,60,2,1,1,1,TRUE,FALSE,4.81,102,Ioanna Apartments,40.6389,22.9362
Neapoli,325,65,4,2,2,1,TRUE,TRUE,4.91,264,Δημητρης,40.6288,22.9528
Neapoli,278,56,2,1,1,1,TRUE,FALSE,4.67,83,Λένια,40.6363,22.9373
Neapoli,280,56,2,1,1,1,TRUE,TRUE,4.72,174,Σπυρος,40.638,22.939
Neapoli,275,55,3,1,1,1,TRUE,TRUE,4.9,30,Άρη&Markella,40.6361,22.9519
Neapoli,332,67,3,1,1,1,TRUE,TRUE,4.86,40,Georgios,40.64108,22.94997
Neapoli,277,56,2,1,1,1,TRUE,TRUE,4.79,703,Alexandra,40.6318,22.9417
Neapoli,529,106,4,1,3,1,TRUE,TRUE,4.89,104,Ioannis,40.6368,22.9428
Neapoli,310,62,3,1,1,1,TRUE,FALSE,4.84,147,Innovation,40.6378,22.93699
Neapoli,429,86,4,1,2,1,TRUE,TRUE,4.97,413,Eleni,40.6304,22.95053
Neapoli,260,52,1,1,,,TRUE,TRUE,4.98,116,,40.63754,22.94952
Neapoli,328,66,3,1,1,1,TRUE,FALSE,4.79,9,Αλέξανδρος,40.6403,22.94269
Neapoli,412,83,4,1,2,1,TRUE,FALSE,4.79,266,Vasilis,40.63621,22.93697
Neapoli,605,121,2,1,2,1,TRUE,TRUE,4.83,40,Halu,40.6317,22.9451
Neapoli,323,65,2,1,1,1,TRUE,TRUE,4.93,235,George,40.6375,22.9438
Neapoli,415,83,4,1,2,1,TRUE,FALSE,4.87,138,My Street,40.63791,22.938
Neapoli,318,64,4,1,2,1,TRUE,TRUE,4.89,158,Κλεάνθης,40.64034,22.96084
Neapoli,273,55,2,1,1,1,TRUE,TRUE,4.94,43,Chrysoula,40.6386,22.963
Neapoli,439,88,4,1,2,1,TRUE,TRUE,4.94,221,Erik,40.63384,22.94883
Neapoli,380,76,3,1,2,1,TRUE,TRUE,4.85,72,Georgios,40.63289,22.95132
Neapoli,439,88,4,1,2,1,TRUE,TRUE,4.88,169,Magdalena,40.63794,22.93946
Neapoli,364,73,4,1,2,1,TRUE,TRUE,4.94,116,Ioanna,40.6415,22.96
Neapoli,320,64,4,1,2,1,TRUE,FALSE,4.84,106,Innovation,40.63822,22.93614
Neapoli,317,64,3,1,2,1,TRUE,TRUE,4.92,64,Dimitrios,40.64397,22.95222
Neapoli,362,73,4,1,2,1,TRUE,FALSE,4.85,140,Cristina And Tomas Skgbnb,40.63205,22.94766
Neapoli,366,74,3,1,1,1,TRUE,FALSE,4.72,78,Apostolos,40.63474,22.94606
Neapoli,310,62,2,1,1,1,TRUE,FALSE,4.84,110,Innovation,40.63598,22.93638
Neapoli,391,79,4,1,2,1,TRUE,FALSE,4.8,180,Helias,40.6283,22.9497
Neapoli,237,48,2,1,1,1,TRUE,TRUE,4.79,578,Alexandra,40.6318,22.9417
Neapoli,420,84,4,1,1,1,TRUE,TRUE,4.91,209,⁨Π.38⁩,40.6316,22.9474
Neapoli,315,63,2,1,1,1,TRUE,FALSE,4.81,288,Paraskevi,40.6425,22.93687
Neapoli,306,62,4,1,2,1,TRUE,FALSE,4.67,182,John,40.63612,22.93576
Neapoli,370,74,2,1,1,1,TRUE,TRUE,5,92,Dimitris,40.6336,22.949
Neapoli,308,62,6,2,1.5,,TRUE,FALSE,4.65,34,Ioannis,40.63554,22.93814
Neapoli,422,85,4,1,2,1,TRUE,TRUE,4.99,18,George,40.6382,22.9502
Neapoli,516,104,4,1,2,1,TRUE,TRUE,4.87,128,My Street,40.63996,22.93889
Neapoli,224,45,2,1,1,1,TRUE,TRUE,5,6,Asteris,40.645717243023064,22.9517388
Neapoli,447,90,4,1,2,1,TRUE,TRUE,4.92,173,Maria,40.6365,22.9376
Neapoli,262,53,2,1,1,1,TRUE,TRUE,4.85,58,Georgios,40.63267,22.95116
Neapoli,309,62,4,1,2,1,TRUE,FALSE,4.79,812,Alexandra,40.6318,22.9417
Neapoli,204,41,3,1,2,1,TRUE,FALSE,4.79,13,Sotirios,40.6452,22.9433
Neapoli,317,64,3,1,2,1,TRUE,TRUE,4.92,64,Dimitrios,40.64397,22.95222
Neapoli,390,78,2,1,1,1,TRUE,FALSE,4.85,45,Cristina And Tomas Skgbnb,40.64198,22.94183
Neapoli,183,37,4,1,1,1,TRUE,FALSE,4.47,109,Anastasia,40.64301,22.94989
Neapoli,265,53,2,1,1,1,TRUE,TRUE,4.91,138,Chrysoula,40.6388,22.9625
Neapoli,374,75,4,1,2,1,TRUE,FALSE,4.71,239,Helias,40.62776,22.94873
Neapoli,378,76,4,1,2,1,TRUE,FALSE,4.84,134,Innovation,40.63672,22.93779
Neapoli,410,82,4,1,2,1,TRUE,TRUE,4.9,292,Έλενα,40.6379,22.9436
Neapoli,482,97,3,1,1,1,TRUE,TRUE,4.97,213,Athanasios,40.6411,22.9439
Neapoli,276,56,3,1,2,1,TRUE,TRUE,4.84,196,Zoitsa,40.64252,22.94417
Neapoli,382,77,2,1,1,1,TRUE,FALSE,4.85,323,Giorgos,40.6308,22.9515
Neapoli,355,71,4,1,2,1,TRUE,TRUE,4.97,72,Daniil,40.6378,22.9506
Neapoli,267,54,3,1,2,1,TRUE,TRUE,4.9,271,Kleanthi,40.638,22.94786
Neapoli,381,77,4,1,2,1,TRUE,TRUE,5,38,George,40.6359,22.9534
Neapoli,294,59,2,1,1,1,TRUE,TRUE,4.84,409,EscapeInStyle,40.6318,22.9417
Neapoli,245,49,2,1,1,1,TRUE,TRUE,4.89,206,Georgios,40.6407,22.93661
Neapoli,437,88,6,2,3,1,TRUE,FALSE,4.76,9,Evgeny,40.64085,22.93696
Neapoli,522,105,4,1,2,1,TRUE,TRUE,4.93,63,Ioannis,40.6324,22.9452
Neapoli,264,53,2,1,1,1,TRUE,TRUE,4.97,71,Maria,40.641,22.9527
Neapoli,317,64,3,1,2,1,TRUE,TRUE,4.92,64,Dimitrios,40.64397,22.95222
Neapoli,267,54,3,1,2,1,TRUE,TRUE,4.9,271,Kleanthi,40.638,22.94786
Neapoli,204,41,3,1,2,1,TRUE,FALSE,4.79,13,Sotirios,40.6452,22.9433
Neapoli,265,53,2,1,1,1,TRUE,TRUE,4.94,138,Chrysoula,40.6388,22.9625
Neapoli,183,37,4,1,1,1,TRUE,FALSE,4.47,109,Anastasia,40.64301,22.94989
Neapoli,246,50,2,1,2,1,TRUE,TRUE,4.75,147,Eleni,40.6369,22.95202
Neapoli,232,47,2,1,1,1,TRUE,TRUE,4.94,144,Dimitra Loukia,40.6419,22.9611
Neapoli,264,53,2,1,1,1,TRUE,TRUE,4.97,71,Maria,40.641,22.9527
Neapoli,353,71,4,1,2,1,TRUE,FALSE,4.83,8,Mike,40.6364,22.9547
Neapoli,373,75,4,1,2,1,TRUE,TRUE,4.92,108,Silvia,40.641,22.9454
Neapoli,394,79,2,1,1,1,TRUE,TRUE,4.82,182,Ntemi And Nick,40.6409,22.943
Neapoli,257,52,2,1,1,1,TRUE,TRUE,4.96,78,Dimitrios,40.63922,22.96257
Neapoli,352,71,4,1,2,1,TRUE,TRUE,4.94,34,Christos,40.6416,22.949
Neapoli,438,88,2,1,1,1,TRUE,TRUE,5,74,Eleni,40.6372,22.9467
Neapoli,339,68,3,1,2,1,TRUE,TRUE,4.93,15,Dimitris,40.644,22.9402
Neapoli,290,58,2,1,1,1,TRUE,TRUE,4.86,35,Anastasia,40.63593786,22.9587517
Neapoli,373,75,3,1,2,1,TRUE,TRUE,4.85,100,Georgios,40.6337,22.9503
Neapoli,464,93,2,1,1,1,TRUE,FALSE,4.86,22,Tomas&Cristina! Skgbnb,40.6387,22.9485
Neapoli,317,64,3,1,2,1,TRUE,TRUE,4.92,64,Dimitrios,40.64397,22.95222
Neapoli,267,54,3,1,2,1,TRUE,TRUE,4.9,271,Kleanthi,40.638,22.94786
Neapoli,183,37,4,1,1,1,TRUE,FALSE,4.47,109,Anastasia,40.64301,22.94989
Neapoli,204,41,3,1,2,1,TRUE,FALSE,4.79,13,Sotirios,40.6452,22.9433
Neapoli,340,68,4,2,4,1,TRUE,TRUE,4.91,121,Αθανάσιος,40.61522,22.96542
Neapoli,246,50,2,1,2,1,TRUE,TRUE,4.75,147,Eleni,40.6369,22.95202
Neapoli,583,117,4,1,1,1,TRUE,FALSE,4.87,183,My Street,40.6379,22.93827
Neapoli,232,47,2,1,1,1,TRUE,TRUE,4.94,144,Dimitra Loukia,40.6419,22.9611
Neapoli,500,100,4,1,2,1,TRUE,TRUE,4.91,71,Estia Premium Apartments By D.K.T,40.6423,22.9348
Neapoli,359,72,4,1,2,1,TRUE,TRUE,4.89,24,Dimitrios,40.6425,22.9296
Neapoli,376,76,2,1,1,1,TRUE,TRUE,4.87,173,My Street,40.63987,22.93722
Neapoli,502,101,4,1,2,1,TRUE,TRUE,4.84,85,Innovation,40.6382,22.9371
Neapoli,277,56,2,1,1,1,TRUE,FALSE,4.8,54,Maria,40.63921,22.94975
Neapoli,244,49,2,1,3,1,TRUE,FALSE,4.78,68,George,40.6345,22.9484
Neapoli,264,53,2,1,1,1,TRUE,TRUE,4.97,71,Maria,40.641,22.9527
Neapoli,234,47,2,1,2,1,TRUE,TRUE,4.65,31,Athanasios,40.63547,22.95003
Neapoli,257,52,2,1,1,1,TRUE,TRUE,4.96,78,Dimitrios,40.63922,22.96257
Neapoli,407,82,4,1,1,1,TRUE,TRUE,5,6,Vasiliki,40.6421,22.9609
Neapoli,361,73,4,1,2,1,TRUE,FALSE,4.84,156,Innovation,40.6381,22.93704
Neapoli,317,64,3,1,2,1,TRUE,TRUE,4.92,64,Dimitrios,40.64397,22.95222
Neapoli,204,41,3,1,2,1,TRUE,FALSE,4.79,13,Sotirios,40.6452,22.9433
Neapoli,183,37,4,1,1,1,TRUE,FALSE,4.47,109,Anastasia,40.64301,22.94989
Neapoli,246,50,2,1,2,1,TRUE,TRUE,4.75,147,Eleni,40.6369,22.95202
Neapoli,267,54,3,1,2,1,TRUE,TRUE,4.9,271,Kleanthi,NaN,NaN
Neapoli,257,52,2,1,1,1,TRUE,TRUE,4.96,78,Dimitrios,40.63922,22.96257
Neapoli,298,60,2,1,1,1,TRUE,FALSE,4.81,102,Ioanna Apartments,40.6389,22.9362
Neapoli,357,72,2,1,2,1,TRUE,FALSE,4.72,61,Apostolos,40.63409,22.94817
Neapoli,285,57,2,1,1,1,TRUE,FALSE,4.86,11,Guy,40.63751,22.95035
Neapoli,285,57,2,1,1,1,TRUE,TRUE,4.97,175,Ioanna,40.6388,22.9625
Neapoli,364,73,4,1,2,1,TRUE,TRUE,4.99,197,Andreas,40.6301,22.9667
Neapoli,360,72,3,1,2,1,TRUE,TRUE,5,9,Konstantinos,40.6413,22.9397
Neapoli,249,50,2,1,1,1,TRUE,TRUE,4.87,77,Γιωργος,40.6373,22.9545
Neapoli,226,46,3,1,2,1,TRUE,FALSE,4.73,26,Chrysovalantou,40.63530153,22.95227392
Neapoli,277,56,2,1,1,1,TRUE,FALSE,4.61,54,Maria,40.63921,22.94975
Neapoli,503,101,4,2,2,2,TRUE,TRUE,5,5,Christina,40.6311,22.948
Neapoli,375,75,4,1,2,1,TRUE,TRUE,4.98,52,Dimitris,40.6415,22.96
Neapoli,317,64,3,1,2,1,TRUE,TRUE,4.92,64,Dimitrios,40.64397,22.95222
Neapoli,267,54,3,1,2,1,TRUE,TRUE,4.9,271,Kleanthi,40.638,22.94786
Neapoli,183,37,4,1,1,1,TRUE,FALSE,4.47,109,Anastasia,40.64301,22.94989
Neapoli,246,50,2,1,2,1,TRUE,TRUE,4.75,147,Eleni,40.6369,22.95202
Neapoli,204,41,3,1,2,1,TRUE,FALSE,4.79,13,Sotirios,40.6452,22.9433
Neapoli,298,60,2,1,1,1,TRUE,FALSE,4.8,102,Ioanna Apartments,40.6389,22.9362
Neapoli,439,88,4,1,2,1,TRUE,TRUE,4.88,169,Magdalena,40.63794,22.93946
Neapoli,234,47,2,1,2,1,TRUE,TRUE,4.65,31,Athanasios,40.63547,22.95003
Neapoli,293,59,3,1,2,1.5,TRUE,TRUE,4.82,222,Simos,40.6393,22.9443
Neapoli,277,56,2,1,1,1,TRUE,TRUE,4.79,703,Alexandra,40.6318,22.9417
Neapoli,393,79,5,2,3,1,TRUE,TRUE,4.84,8,Marinela,40.6473,22.9417
Neapoli,317,64,4,1,2,1,TRUE,FALSE,4.85,330,Sakis & Katerina,40.6287,22.9504
Neapoli,317,64,4,1,2,1,TRUE,TRUE,4.82,232,Ntemi And Nick,40.63982,22.94939
Neapoli,277,56,2,1,1,1,TRUE,FALSE,4.61,54,Maria,40.63921,22.94975
Neapoli,460,92,4,1,1,1,TRUE,TRUE,4.86,145,Ioannis And Christina Tzekou,40.63695,22.94411
Neapoli,433,87,2,1,1,1,TRUE,TRUE,5,140,Efstathios,40.63741,22.95506
Neapoli,352,71,2,1,2,1,TRUE,TRUE,4.95,59,Alexandros,40.6347,22.9536
Neapoli,318,64,5,2,3,1,TRUE,FALSE,4.85,13,Jk,40.6436,22.9601
Neapoli,317,64,3,1,2,1,TRUE,TRUE,4.92,64,Dimitrios,40.64397,22.95222
Neapoli,349,70,2,1,1,1,TRUE,TRUE,5,8,Παυλος,40.6404,22.9364
Neapoli,357,72,4,1,2,1,TRUE,TRUE,4.86,50,Nandia,40.6327,22.9488
Neapoli,246,50,2,1,2,1,TRUE,TRUE,4.75,147,Eleni,40.6369,22.95202
Neapoli,267,54,3,1,2,1,TRUE,TRUE,4.9,271,Kleanthi,40.638,22.94786
Neapoli,183,37,4,1,1,1,TRUE,FALSE,4.47,109,Anastasia,40.64301,22.94989
Neapoli,204,41,3,1,2,1,TRUE,FALSE,4.79,13,Sotirios,40.6452,22.9433
Neapoli,285,57,2,1,1,1,TRUE,FALSE,4.86,11,Guy,40.63751,22.95035
Neapoli,439,88,4,1,2,1,TRUE,TRUE,4.88,169,Magdalena,40.63794,22.93946
Neapoli,460,92,4,1,1,1,TRUE,TRUE,4.86,145,Ioannis And Christina Tzekou,40.63695,22.94411
Neapoli,226,46,3,1,2,1,TRUE,FALSE,4.73,26,Chrysovalantou,40.63530153,22.95227391
Neapoli,260,52,1,1,,,TRUE,TRUE,4.98,116,,40.63754,22.94952
Neapoli,234,47,2,1,2,1,TRUE,TRUE,4.65,31,Athanasios,40.63547,22.95003
Neapoli,277,56,2,1,1,1,TRUE,TRUE,4.79,703,Alexandra,40.6318,22.9417
Neapoli,298,60,2,1,1,1,TRUE,FALSE,4.81,102,Ioanna Apartments,40.6389,22.9362
Neapoli,273,55,2,1,1,1,TRUE,TRUE,4.94,43,Chrysoula,40.6386,22.963
Neapoli,244,49,2,1,3,1,TRUE,FALSE,4.78,68,George,40.6345,22.9484
Neapoli,277,56,2,1,1,1,TRUE,FALSE,4.61,54,Maria,40.63921,22.94975
